[
  {
    "michelinSlug": "paris/le-timbre",
    "slug": "le-timbre",
    "name": "Le Timbre",
    "city": "Paris",
    "address": "3 Rue Sainte-Beuve, 75006 Paris",
    "lat": 48.8424,
    "lng": 2.3289,
    "michelinRating": "BIB",
    "cuisine": "Bistronomique",
    "heroImageKey": null
  },
  {
    "michelinSlug": "paris/chez-michel",
    "slug": "chez-michel",
    "name": "Chez Michel",
    "city": "Paris",
    "address": "10 Rue de Belzunce, 75010 Paris",
    "lat": 48.8809,
    "lng": 2.3537,
    "michelinRating": "BIB",
    "cuisine": "Brasserie bretonne",
    "heroImageKey": null
  },
  {
    "michelinSlug": "paris/au-passage",
    "slug": "au-passage",
    "name": "Au Passage",
    "city": "Paris",
    "address": "1 Bis Passage Saint-Sébastien, 75011 Paris",
    "lat": 48.858,
    "lng": 2.3718,
    "michelinRating": "BIB",
    "cuisine": "Partage",
    "heroImageKey": null
  },
  {
    "michelinSlug": "lyon/daniel-et-denise-saint-jean",
    "slug": "daniel-et-denise-saint-jean",
    "name": "Daniel et Denise Saint-Jean",
    "city": "Lyon",
    "address": "36 Rue Tramassac, 69005 Lyon",
    "lat": 45.7623,
    "lng": 4.8275,
    "michelinRating": "BIB",
    "cuisine": "Lyonnaise",
    "heroImageKey": null
  },
  {
    "michelinSlug": "lyon/le-garet",
    "slug": "le-garet",
    "name": "Le Garet",
    "city": "Lyon",
    "address": "7 Rue du Garet, 69001 Lyon",
    "lat": 45.7671,
    "lng": 4.8357,
    "michelinRating": "BIB",
    "cuisine": "Bouchon lyonnais",
    "heroImageKey": null
  },
  {
    "michelinSlug": "paris/le-chateaubriand",
    "slug": "le-chateaubriand",
    "name": "Le Chateaubriand",
    "city": "Paris",
    "address": "129 Avenue Parmentier, 75011 Paris",
    "lat": 48.8668,
    "lng": 2.3745,
    "michelinRating": "ONE",
    "cuisine": "Créative",
    "heroImageKey": null
  },
  {
    "michelinSlug": "paris/semilla",
    "slug": "semilla",
    "name": "Semilla",
    "city": "Paris",
    "address": "54 Rue de Seine, 75006 Paris",
    "lat": 48.8547,
    "lng": 2.337,
    "michelinRating": "ONE",
    "cuisine": "Moderne",
    "heroImageKey": null
  },
  {
    "michelinSlug": "paris/astrance",
    "slug": "astrance",
    "name": "Astrance",
    "city": "Paris",
    "address": "32 Rue de Longchamp, 75016 Paris",
    "lat": 48.8618,
    "lng": 2.2897,
    "michelinRating": "ONE",
    "cuisine": "Gastronomique",
    "heroImageKey": null
  },
  {
    "michelinSlug": "paris/clown-bar",
    "slug": "clown-bar",
    "name": "Clown Bar",
    "city": "Paris",
    "address": "114 Rue Amelot, 75011 Paris",
    "lat": 48.861,
    "lng": 2.3707,
    "michelinRating": "ONE",
    "cuisine": "Bistrot gourmand",
    "heroImageKey": null
  },
  {
    "michelinSlug": "paris/septime",
    "slug": "septime",
    "name": "Septime",
    "city": "Paris",
    "address": "80 Rue de Charonne, 75011 Paris",
    "lat": 48.8531,
    "lng": 2.3788,
    "michelinRating": "ONE",
    "cuisine": "Moderne",
    "heroImageKey": null
  },
  {
    "michelinSlug": "lyon/les-loges",
    "slug": "les-loges",
    "name": "Les Loges",
    "city": "Lyon",
    "address": "6 Rue du Boeuf, 69005 Lyon",
    "lat": 45.7629,
    "lng": 4.827,
    "michelinRating": "ONE",
    "cuisine": "Créative",
    "heroImageKey": null
  },
  {
    "michelinSlug": "lyon/takao-takano",
    "slug": "takao-takano",
    "name": "Takao Takano",
    "city": "Lyon",
    "address": "33 Rue Malesherbes, 69006 Lyon",
    "lat": 45.767,
    "lng": 4.8452,
    "michelinRating": "ONE",
    "cuisine": "Franco-japonaise",
    "heroImageKey": null
  },
  {
    "michelinSlug": "lyon/paul-bocuse-collonges",
    "slug": "paul-bocuse-collonges",
    "name": "Paul Bocuse (Collonges-au-Mont-d'Or)",
    "city": "Lyon",
    "address": "40 Rue de la Plage, 69660 Collonges-au-Mont-d'Or",
    "lat": 45.8193,
    "lng": 4.8494,
    "michelinRating": "ONE",
    "cuisine": "Classique française",
    "heroImageKey": null
  },
  {
    "michelinSlug": "paris/arpege",
    "slug": "arpege",
    "name": "Arpège",
    "city": "Paris",
    "address": "84 Rue de Varenne, 75007 Paris",
    "lat": 48.8565,
    "lng": 2.3156,
    "michelinRating": "TWO",
    "cuisine": "Légumes",
    "heroImageKey": null
  },
  {
    "michelinSlug": "paris/le-pre-catelan",
    "slug": "le-pre-catelan",
    "name": "Le Pré Catelan",
    "city": "Paris",
    "address": "Route de Suresnes, Bois de Boulogne, 75016 Paris",
    "lat": 48.862,
    "lng": 2.2516,
    "michelinRating": "TWO",
    "cuisine": "Gastronomique",
    "heroImageKey": null
  },
  {
    "michelinSlug": "lyon/la-mere-brazier",
    "slug": "la-mere-brazier",
    "name": "La Mère Brazier",
    "city": "Lyon",
    "address": "12 Rue Royale, 69001 Lyon",
    "lat": 45.7707,
    "lng": 4.8324,
    "michelinRating": "TWO",
    "cuisine": "Lyonnaise raffinée",
    "heroImageKey": null
  },
  {
    "michelinSlug": "lyon/le-neuvieme-art",
    "slug": "le-neuvieme-art",
    "name": "Le Neuvième Art",
    "city": "Lyon",
    "address": "173 Rue Cuvier, 69006 Lyon",
    "lat": 45.7712,
    "lng": 4.848,
    "michelinRating": "TWO",
    "cuisine": "Créative",
    "heroImageKey": null
  },
  {
    "michelinSlug": "paris/le-cinq",
    "slug": "le-cinq",
    "name": "Le Cinq",
    "city": "Paris",
    "address": "31 Avenue George V, 75008 Paris",
    "lat": 48.8688,
    "lng": 2.301,
    "michelinRating": "THREE",
    "cuisine": "Gastronomique française",
    "heroImageKey": null
  },
  {
    "michelinSlug": "paris/epicure",
    "slug": "epicure",
    "name": "Épicure",
    "city": "Paris",
    "address": "112 Rue du Faubourg Saint-Honoré, 75008 Paris",
    "lat": 48.8718,
    "lng": 2.3157,
    "michelinRating": "THREE",
    "cuisine": "Gastronomique française",
    "heroImageKey": null
  },
  {
    "michelinSlug": "paris/lambroisie",
    "slug": "lambroisie",
    "name": "L'Ambroisie",
    "city": "Paris",
    "address": "9 Place des Vosges, 75004 Paris",
    "lat": 48.8556,
    "lng": 2.366,
    "michelinRating": "THREE",
    "cuisine": "Gastronomique française",
    "heroImageKey": null
  }
]
